,City,Cloudiness,Country,Date,Humidity,Lat,Lng,Max Temp,Wind Speed
0,ponta do sol,78,PT,1632798348,83,38.7333,-28.2667,64.42,14.03
1,namibe,30,AO,1632798348,89,-15.1961,12.1522,62.13,3.87
2,biak,95,ID,1632798349,68,-0.9131,122.8766,83.07,4.07
3,ushuaia,93,AR,1632798349,94,-54.8,-68.3,36.9,3.15
4,rikitea,37,PF,1632798350,75,-23.1203,-134.9692,73.15,21.14
5,punta arenas,98,PH,1632798350,64,8.9897,125.34,87.31,5.95
6,charters towers,67,US,1632798350,74,38.5736,-83.4333,71.94,9.98
7,albany,100,US,1632798351,83,42.6001,-73.9662,68.58,5.01
8,sabancuy,41,MX,1632798351,81,18.9667,-91.1833,81.48,9.48
9,tiksi,99,RU,1632798351,94,71.6872,128.8694,32.9,3.58
10,vaini,75,TO,1632798352,83,-21.2,-175.2,77.16,5.75
11,nikolskoye,0,RU,1632798352,96,59.7035,30.7861,46.29,3.38
12,bluff,94,NZ,1632798352,66,-46.6,168.3333,55.8,14.27
13,bredasdorp,1,ZA,1632798352,90,-34.5322,20.0403,49.03,5.99
14,atuona,14,PF,1632798353,72,-9.8,-139.0333,78.06,19.22
15,cape town,18,CL,1632798353,69,-36.413,-71.9028,45.82,5.66
16,yumen,0,CN,1632798353,13,40.2833,97.2,71.76,1.52
17,jamestown,20,US,1632798354,87,42.097,-79.2353,67.32,1.01
18,port blair,38,CD,1632798354,61,-7.0349,29.7638,74.97,1.9
19,carnarvon,58,AU,1632798236,33,-24.8667,113.6333,77.07,8.05
20,fukuma,96,JP,1632798154,74,33.7667,130.4667,88.09,3.4
21,bondo,98,CD,1632798355,99,3.8146,23.6866,67.41,0.58
22,chenzhou,86,CN,1632798355,58,25.8,113.0333,89.35,0.65
23,carahue,44,CL,1632798355,92,-38.7,-73.1667,39.4,1.9
24,port alfred,38,CD,1632798354,61,-7.0349,29.7638,74.97,1.9
25,hilo,75,US,1632798356,75,19.7297,-155.09,82.27,8.05
26,upernavik,30,GL,1632798356,56,72.7868,-56.1549,24.73,5.46
27,hermanus,42,ZA,1632798356,74,-34.4187,19.2345,54.9,5.5
28,lagoa,52,PT,1632798357,79,39.05,-27.9833,68.29,15.43
29,puerto ayora,0,ES,1632798357,91,36.5939,-6.233,64.54,3.44
30,huilong,18,CN,1632798357,73,31.8111,121.655,86.99,3.74
31,atar,0,MR,1632798358,12,20.5169,-13.0499,90.84,5.75
32,aswan,5,EG,1632798358,35,24.0934,32.907,75.7,10.96
33,havoysund,98,NO,1632798358,72,70.9963,24.6622,58.08,12.93
34,longyearbyen,75,SJ,1632798359,93,78.2186,15.6401,33.64,4.61
35,mataura,85,NZ,1632798359,48,-46.1927,168.8643,55.47,4.25
36,coquimbo,0,CL,1632798196,87,-29.9533,-71.3436,55.13,0.0
37,iqaluit,100,CA,1632798077,77,63.7506,-68.5145,31.69,8.01
38,cayenne,0,GF,1632798359,80,4.9333,-52.3333,83.08,1.99
39,port elizabeth,38,CD,1632798360,61,-7.0349,29.7638,74.97,1.9
40,isangel,35,VU,1632798360,60,-19.55,169.2667,77.23,10.38
41,constantine,98,DZ,1632798360,90,36.365,6.6147,64.69,2.13
42,thompson,31,CA,1632798263,72,55.7435,-97.8558,48.96,8.61
43,lata,98,PT,1632798361,94,40.1629,-8.3327,65.05,2.73
44,mayo,1,US,1632798361,69,38.8876,-76.5119,72.99,4.0
45,tuktoyaktuk,15,CA,1632798196,85,69.4541,-133.0374,26.58,8.77
46,anadyr,90,RU,1632798362,93,64.75,177.4833,34.3,6.71
47,tasiilaq,7,GL,1632798362,56,65.6145,-37.6368,35.76,6.62
48,tura,29,IN,1632798362,70,25.5198,90.2201,83.82,2.01
49,airai,27,TL,1632798363,29,-8.9266,125.4092,81.84,2.8
50,launceston,40,AU,1632798363,54,-41.45,147.1667,63.61,5.99
51,ebolowa,100,CM,1632798363,99,2.9,11.15,67.21,2.01
52,georgetown,20,MY,1632798312,76,5.4112,100.3354,86.9,11.5
53,eyl,86,SO,1632798137,66,7.9803,49.8164,80.15,12.97
54,belyy yar,100,RU,1632798364,94,55.8402,32.9419,45.52,5.79
55,lavrentiya,40,RU,1632798364,79,65.5833,-171.0,30.78,1.61
56,bayog,73,PH,1632798364,59,7.8667,123.0667,90.07,3.51
57,oranjestad,0,AW,1632798270,82,12.524,-70.027,83.91,7.0
58,busselton,100,AU,1632798365,64,-33.65,115.3333,63.09,8.1
59,touros,67,BR,1632798195,85,-5.1989,-35.4608,77.9,15.03
60,kabinda,82,CD,1632798365,93,-6.1333,24.4833,66.58,4.12
61,alofi,75,NU,1632798365,69,-19.0595,-169.9187,82.29,12.66
62,provideniya,75,RU,1632798366,64,64.3833,-173.3,33.91,6.71
63,esperance,94,AU,1632798366,76,-33.8667,121.9,58.21,15.3
64,saint-philippe,40,RE,1632798366,78,-21.3585,55.7679,69.35,14.03
65,qaanaaq,100,GL,1632798367,67,77.484,-69.3632,24.48,7.78
66,kasongo-lunda,98,CD,1632798367,94,-6.4667,16.8167,71.02,2.3
67,torbay,0,CA,1632798331,92,47.6666,-52.7314,56.57,7.0
68,harper,96,LR,1632798367,90,4.375,-7.7169,76.1,6.67
69,muros,100,ES,1632798367,91,42.7762,-9.0603,61.84,6.71
70,miri,27,MY,1632798368,67,4.4148,114.0089,86.02,3.94
71,fortuna,90,US,1632798368,98,40.5982,-124.1573,57.09,3.44
72,yeppoon,90,AU,1632798368,65,-23.1333,150.7333,74.98,15.08
73,ust-maya,100,RU,1632798369,92,60.4167,134.5333,40.33,7.34
74,buraydah,56,SA,1632798293,13,26.326,43.975,70.65,2.35
75,raduzhnyy,91,RU,1632798369,78,62.0961,77.475,36.1,9.17
76,arraial do cabo,0,BR,1632798369,72,-22.8362,-46.646,67.41,5.3
77,khatanga,99,RU,1632798369,63,71.9667,102.5,31.35,8.23
78,jiuquan,0,CN,1632798370,14,39.7432,98.5174,71.6,6.76
79,fairfield,1,US,1632798279,70,41.2668,-73.3162,72.16,10.36
80,majene,34,ID,1632798370,69,-3.5403,118.9707,84.63,8.88
81,nyurba,79,RU,1632798370,64,63.2842,118.3319,39.74,11.9
82,bonavista,17,CA,1632798371,85,48.6499,-53.1147,59.11,15.95
83,rundu,0,NA,1632798371,21,-17.9333,19.7667,64.22,3.06
84,matara,98,LK,1632798371,84,5.9485,80.5353,80.24,15.64
85,upata,36,VE,1632798371,90,8.0086,-62.3989,71.38,3.06
86,dryden,28,CA,1632798195,68,49.7833,-92.7503,50.65,4.99
87,castro,16,BR,1632798094,78,-24.7911,-50.0119,61.97,4.21
88,fairbanks,38,US,1632798305,79,64.8378,-147.7164,35.1,1.79
89,bambous virieux,36,MU,1632798372,71,-20.2567,57.4061,72.14,11.61
90,washington,100,US,1632798291,81,47.5001,-120.5015,56.84,2.01
91,makurdi,35,NG,1632798372,95,7.7411,8.5121,72.59,4.05
92,havelock,1,US,1632798373,78,34.8791,-76.9013,75.94,0.0
93,panjab,0,AF,1632798373,14,34.388,67.0233,56.35,1.14
94,avarua,75,CK,1632798373,78,-21.2078,-159.775,77.05,3.44
95,ardahan,3,TR,1632798373,89,41.1087,42.7022,37.47,2.37
96,kapaa,75,US,1632798374,74,22.0752,-159.319,79.12,5.99
97,bengkulu,41,ID,1632798374,73,-3.8004,102.2655,83.26,3.87
98,rosarito,38,MX,1632798374,78,32.3333,-117.0333,65.48,6.67
99,kodiak,100,US,1632798375,64,57.79,-152.4072,44.37,3.11
100,ixtapa,100,MX,1632798375,93,20.7,-105.2,76.53,2.46
101,bethel,1,US,1632798244,73,41.3712,-73.414,72.01,10.36
102,chalons-en-champagne,99,FR,1632798375,98,48.9539,4.3672,50.58,5.01
103,cacoal,14,BR,1632798375,70,-11.4386,-61.4472,77.04,7.45
104,mar del plata,75,ES,1632798376,95,43.4002,-4.0094,62.02,0.0
105,marystown,0,CA,1632798376,100,47.1666,-55.1483,54.86,1.99
106,hobart,75,AU,1632798376,54,-42.8794,147.3294,60.26,5.75
107,port hardy,38,CD,1632798360,61,-7.0349,29.7638,74.97,1.9
108,grindavik,75,IS,1632798377,75,63.8424,-22.4338,37.87,16.11
109,ternate,89,ID,1632798377,71,0.8,127.4,84.13,5.41
110,eureka,80,US,1632798377,97,40.8021,-124.1637,57.36,4.97
111,belaya gora,0,UA,1632798378,70,49.029,25.7706,45.99,8.77
112,cidreira,3,BR,1632798378,94,-30.1811,-50.2056,65.88,11.95
113,souillac,68,MU,1632798378,74,-20.5167,57.5167,73.36,12.88
114,lompoc,90,US,1632798304,90,34.6391,-120.4579,61.32,8.05
115,barrow,90,US,1632798379,86,71.2906,-156.7887,30.22,10.36
116,belluno,3,IT,1632798379,94,46.145,12.2214,59.88,6.78
117,canico,20,PT,1632798379,74,32.6333,-16.85,72.23,11.5
118,prescott,75,US,1632798157,90,34.54,-112.4685,60.37,4.0
119,cabo san lucas,59,BR,1632798379,89,-8.2833,-35.0333,75.13,10.27
120,taoudenni,5,ML,1632798380,9,22.6783,-3.9836,91.9,9.53
121,cabinda,100,AO,1632798380,87,-5.55,12.2,74.84,5.53
122,namtsy,0,RU,1632798381,42,62.7161,129.6658,48.31,9.91
123,andenes,100,NO,1632798190,71,69.3143,16.1194,57.47,8.05
124,verkhnyaya maksakovka,91,RU,1632798381,97,60.9844,40.2072,38.01,2.82
125,ndele,100,CF,1632798381,99,8.4109,20.6473,69.89,3.04
126,portland,77,US,1632798159,93,45.5234,-122.6762,56.52,7.0
127,ponta delgada,78,PT,1632798382,83,38.7333,-28.2667,64.42,14.03
128,ponoka,18,CA,1632798382,53,52.6768,-113.5815,61.47,7.38
129,buala,100,SB,1632798383,76,-8.145,159.5921,81.86,5.59
130,north bend,96,FR,1632798383,95,50.3333,3.6667,50.99,7.31
131,horki,100,BY,1632798383,90,54.2861,30.9842,45.52,5.86
132,sal rei,7,JO,1632798384,87,32.5694,35.9119,66.81,8.48
133,avera,0,US,1632798384,64,33.194,-82.5271,68.72,5.06
134,haines junction,90,US,1632798384,76,59.2286,-135.4441,47.88,8.05
135,komsomolskiy,0,UZ,1632798385,51,40.4272,71.7189,62.02,2.3
136,dunedin,70,NZ,1632798385,51,-45.8742,170.5036,53.98,5.95
137,byron bay,1,US,1632798386,74,44.0327,-92.6455,62.51,4.61
138,ginda,0,IN,1632798386,68,30.6945,78.4932,70.57,1.28
139,wanaka,19,NZ,1632798386,40,-44.7,169.15,53.71,2.19
140,pisco,0,PE,1632798306,88,-13.7,-76.2167,61.02,10.36
141,petropavlovsk-kamchatskiy,20,RU,1632798387,36,53.0452,158.6483,61.39,11.18
142,mahebourg,89,MU,1632798387,72,-20.4081,57.7,73.26,14.14
143,erdenet,35,MN,1632798387,71,49.0333,104.0833,32.07,5.21
144,tacuarembo,8,UY,1632798388,96,-31.7333,-55.9833,59.32,6.49
145,uvalde,1,US,1632798213,29,29.3669,-99.767,84.13,6.91
146,jyvaskyla,90,FI,1632798388,100,62.2415,25.7209,44.13,0.0
147,suluq,17,LY,1632798388,79,31.6682,20.2521,69.58,6.02
148,butaritari,7,KI,1632798389,71,3.0707,172.7902,84.04,17.56
149,qena,0,EG,1632798389,44,26.1615,32.7183,72.9,8.05
150,warwick,75,US,1632798389,74,41.7001,-71.4162,71.46,12.66
151,linfen,100,CN,1632798390,71,36.0889,111.5189,66.24,3.91
152,at-bashi,0,KG,1632798390,21,41.1702,75.8106,56.66,0.92
153,ornskoldsvik,90,SE,1632798390,100,63.2909,18.7153,51.62,8.05
154,marsh harbour,93,GB,1632798390,88,53.6512,-1.8078,50.16,3.0
155,carbonia,27,IT,1632798391,88,39.1672,8.5222,68.0,5.21
156,port macquarie,38,CD,1632798391,61,-7.0349,29.7638,74.97,1.9
157,keti bandar,0,AM,1632798391,70,40.8737,43.8448,42.12,4.61
158,pacific grove,0,US,1632798391,74,38.482,-90.7415,78.98,1.01
159,laiyang,100,CN,1632798392,88,36.9758,120.7136,69.76,8.23
160,norman wells,1,US,1632798392,53,35.2226,-97.4395,82.74,11.5
161,pimentel,23,PE,1632798392,87,-6.8367,-79.9342,63.25,11.63
162,srednekolymsk,78,RU,1632798393,55,67.45,153.6833,27.99,19.46
163,mbuji-mayi,80,CD,1632798393,81,-6.15,23.6,70.57,1.5
164,mankato,1,US,1632798393,75,44.1636,-93.9994,66.72,6.91
165,cloquet,90,US,1632798394,94,46.7216,-92.4594,53.62,5.75
166,geraldton,9,AU,1632798394,49,-28.7667,114.6,73.13,6.91
167,nortelandia,2,BR,1632798394,56,-14.4547,-56.8028,78.33,4.25
168,mount gambier,92,GB,1632798395,88,53.6597,-1.8537,49.48,3.0
169,craig,1,US,1632798330,27,40.5153,-107.5464,70.39,4.61
170,beaverlodge,77,CA,1632798395,46,55.2166,-119.4361,51.67,5.17
171,cherskiy,100,RU,1632798395,96,68.75,161.3,24.1,14.94
172,yellowknife,43,CA,1632798396,83,62.456,-114.3525,41.56,8.99
173,dingle,100,PH,1632798396,70,10.9995,122.6711,86.5,4.97
174,husavik,100,IS,1632798396,96,66.0449,-17.3389,40.41,12.8
175,sabha,0,LY,1632798397,36,27.0377,14.4283,70.99,7.87
176,hamilton,1,US,1632798142,74,39.1834,-84.5333,74.59,3.0
177,arman,100,RU,1632798397,65,59.7,150.1667,47.32,3.91
178,prieska,5,ZA,1632798397,70,-29.6641,22.7474,53.29,4.92
179,atbasar,100,KZ,1632798398,89,51.8,68.3333,38.88,16.51
180,east london,100,IS,1632798398,97,65.0,-15.0,30.56,8.93
181,onega,20,RU,1632798398,93,63.9061,38.1404,42.1,4.12
182,aberystwyth,98,GB,1632798399,89,52.4155,-4.0829,51.66,10.0
183,sao luis de montes belos,100,IN,1632798383,93,20.5113,76.2129,71.53,8.21
184,ishioka,71,JP,1632798399,56,36.1833,140.2667,80.26,8.79
185,palimbang,97,PH,1632798400,64,6.2106,124.1894,86.88,4.92
186,tautira,24,PF,1632798400,77,-17.7333,-149.15,82.42,16.17
187,poronaysk,100,RU,1632798400,68,49.2167,143.1167,66.29,13.2
188,katangli,100,RU,1632798401,81,51.7102,143.2326,60.62,16.67
189,axim,92,GH,1632798401,90,4.8699,-2.2405,75.74,5.32
190,quelimane,69,MZ,1632798401,91,-17.8786,36.8883,71.49,6.02
191,grand river south east,100,US,1632798402,33,38.8755,-109.5012,74.59,2.64
192,tuatapere,97,NZ,1632798402,55,-46.1333,167.6833,55.81,5.5
193,santa cruz,46,PH,1632798262,65,17.486,120.4348,86.99,3.53
194,bialogard,100,PL,1632798402,65,54.007,15.9875,56.75,9.55
195,bukachacha,37,RU,1632798403,46,52.9833,116.9167,46.06,2.73
196,viedma,11,AR,1632798403,30,-40.8135,-62.9967,51.31,15.59
197,chattanooga,1,US,1632798370,81,35.0456,-85.3097,66.79,0.0
198,caravelas,27,BR,1632798403,86,-17.7125,-39.2481,71.01,5.37
199,tiarei,8,PF,1632798404,76,-17.5333,-149.3333,82.42,16.02
200,tsabong,57,BW,1632798404,40,-26.0217,22.401,61.92,12.59
201,bontang,64,ID,1632798404,65,0.1333,117.5,86.29,3.53
202,hutchinson,1,US,1632798244,46,38.0608,-97.9298,79.3,1.01
203,nuuk,0,GL,1632798405,55,64.1835,-51.7216,32.61,11.5
204,salinopolis,4,BR,1632798405,84,-0.6136,-47.3561,78.78,9.98
205,khovu-aksy,100,RU,1632798405,32,51.1333,93.6,31.66,2.68
206,new norfolk,100,LR,1632798405,94,6.6518,-10.5932,74.43,2.04
207,constitucion,0,CL,1632798398,55,-35.3333,-72.4167,51.35,5.12
208,zhangye,0,CN,1632798406,15,38.9342,100.4517,71.85,3.24
209,hasaki,76,JP,1632798406,57,35.7333,140.8333,75.6,13.42
210,omboue,100,GA,1632798407,86,-1.5746,9.2618,75.7,4.76
211,naze,14,JP,1632798407,80,28.3667,129.4833,79.39,15.86
212,pemangkat,49,ID,1632798407,68,1.1667,108.9667,83.89,2.86
213,kenai,1,US,1632798407,44,60.5544,-151.2583,48.29,5.75
214,odweyne,74,SO,1632798408,50,9.4092,45.064,74.03,9.53
215,faanui,24,PF,1632798408,77,-16.4833,-151.75,79.36,17.85
216,thinadhoo,81,MV,1632798408,73,0.5333,72.9333,83.3,14.05
217,bayan,1,CN,1632798319,65,46.0833,127.4,68.88,11.52
218,sitka,90,US,1632798409,87,57.0531,-135.33,48.09,3.44
219,tibiri,7,NE,1632798409,47,13.5627,7.0485,80.87,7.2
220,maceio,75,BR,1632798254,78,-9.6658,-35.7353,80.04,8.05
221,pevek,100,RU,1632798409,74,69.7008,170.3133,23.74,5.61
222,verkh-usugli,58,RU,1632798410,41,52.7,115.1667,42.76,7.34
223,luwuk,96,ID,1632798410,66,-0.9516,122.7875,85.95,4.74
224,hambantota,40,LK,1632798410,89,6.1241,81.1185,80.94,1.14
225,vila,100,PT,1632798410,94,42.0304,-8.1588,52.7,2.19
226,uspenka,25,UA,1632798411,91,48.3903,39.1619,45.46,4.52
227,sokoto,10,NG,1632798411,56,13.0609,5.239,78.55,7.92
228,taunggyi,60,MM,1632798412,74,20.7833,97.0333,72.05,2.08
229,bardiyah,1,LY,1632798412,73,31.7561,25.0865,73.47,12.84
230,svetlyy,55,RU,1632798413,91,54.675,20.1347,41.05,11.34
231,monte cristi,0,FR,1632798413,72,42.4687,9.3916,61.86,5.75
232,santiago del estero,20,CL,1632798271,40,-33.4569,-70.6483,63.86,2.3
233,chuy,100,UY,1632798413,97,-33.6971,-53.4616,57.09,6.44
234,filingue,6,NE,1632798414,41,14.3521,3.3168,85.84,11.63
235,burnie,100,AU,1632798414,63,-41.0667,145.9167,56.5,4.59
236,roebourne,97,AU,1632798414,20,-20.7833,117.1333,83.37,6.93
237,raipur,85,IN,1632798415,84,21.2333,81.6333,78.8,12.39
238,luderitz,4,NA,1632798415,81,-26.6481,15.1594,54.55,18.7
239,bougouni,10,ML,1632798415,86,11.417,-7.479,72.39,3.33
240,orhangazi,2,TR,1632798277,88,40.4892,29.3089,63.37,3.76
241,mandurah,95,AU,1632798306,66,-32.55,115.7,68.22,7.07
242,ribeira grande,40,ES,1632798416,95,42.7461,-8.4439,62.37,2.3
243,ilulissat,0,GL,1632798416,38,69.2167,-51.1,21.22,17.27
244,kruisfontein,100,ZA,1632798417,83,-34.0033,24.7314,57.88,12.24
245,clyde river,70,US,1632798417,63,41.3042,-82.9752,75.61,12.3
246,ostrovnoy,99,RU,1632798417,89,68.0531,39.5131,45.3,7.29
247,boyuibe,3,BO,1632798418,41,-20.4167,-63.2833,78.82,8.14
248,ponca city,1,US,1632798418,47,42.5625,-96.7056,72.09,7.05
249,itarema,95,BR,1632798418,84,-2.9248,-39.9167,79.12,15.3
250,sorland,13,NO,1632798418,84,67.667,12.6934,59.07,21.18
251,syamzha,14,RU,1632798419,97,60.0158,41.0614,35.83,3.74
252,tiznit,1,MA,1632798419,32,29.5833,-9.5,72.66,2.06
253,kieta,37,PG,1632798419,73,-6.2167,155.6333,83.71,4.25
254,lebu,88,CL,1632798420,77,-37.6167,-73.65,47.25,9.86
255,rio grande,94,GR,1632798420,54,38.3,21.7833,73.6,1.01
256,tutoia,59,BR,1632798420,84,-2.7619,-42.2744,79.72,13.04
257,gizo,76,SB,1632798420,76,-8.103,156.8419,81.84,5.93
258,fort-shevchenko,69,KZ,1632798421,61,44.5086,50.263,60.51,16.42
259,flagstaff,75,US,1632798126,90,35.1981,-111.6513,55.33,3.0
260,villaviciosa,100,ES,1632798421,95,43.4813,-5.4357,60.96,2.91
261,mount pleasant,92,GB,1632798421,88,53.6597,-1.8537,49.48,3.0
262,ruangwa,2,TZ,1632798422,92,-10.0667,38.9333,64.44,1.59
263,irbeyskoye,100,RU,1632798422,84,55.6428,95.4522,38.46,9.93
264,toora-khem,28,RU,1632798423,65,52.4675,96.11,31.95,3.33
265,luanda,96,AO,1632798423,86,-8.8368,13.2343,72.48,5.37
266,hosakote,100,IN,1632798423,69,14.2769,77.1699,75.63,21.03
267,sayat,0,TM,1632798424,40,38.7839,63.8803,62.96,7.23
268,cumpas,1,MX,1632798424,56,29.9833,-109.7833,71.49,5.53
269,khandyga,2,RU,1632798424,44,62.6667,135.6,46.63,10.29
270,chokurdakh,99,RU,1632798425,84,70.6333,147.9167,26.62,18.3
271,saskylakh,21,RU,1632798425,85,71.9167,114.0833,28.58,9.8
272,yichang,70,CN,1632798425,63,30.7144,111.2847,83.88,2.75
273,opuwo,2,NA,1632798426,43,-18.0607,13.84,61.65,4.74
274,vanavara,100,RU,1632798426,85,60.34,102.2797,35.17,9.66
275,havre-saint-pierre,72,CA,1632798426,87,50.2334,-63.5986,49.12,8.23
276,college,45,US,1632798427,79,64.8569,-147.8028,34.9,1.66
277,puerto escondido,0,ES,1632798357,91,36.5939,-6.233,64.54,3.44
278,chihuahua,70,MX,1632798165,40,28.5,-106.0,70.63,6.85
279,hualmay,20,PE,1632798427,83,-11.0964,-77.6139,62.4,7.83
280,victoria,6,HK,1632798381,71,22.2855,114.1577,89.33,4.0
281,kargat,51,RU,1632798428,75,55.1956,80.2811,38.89,7.61
282,hobyo,30,SO,1632798428,82,5.3505,48.5268,77.18,22.48
283,sao raimundo das mangabeiras,100,IN,1632798429,93,20.5113,76.2129,71.53,8.21
284,broome,75,US,1632798429,69,42.2506,-75.833,67.01,1.01
285,arona,20,ES,1632798429,57,28.0996,-16.681,74.7,24.16
286,port pirie,38,CD,1632798430,61,-7.0349,29.7638,74.97,1.9
287,bandarbeyla,47,SO,1632798430,79,9.4942,50.8122,78.26,15.79
288,helong,76,CN,1632798430,62,42.5397,128.9972,71.26,3.98
289,kefamenanu,10,ID,1632798431,29,-9.4467,124.4781,92.5,7.23
290,severo-kurilsk,60,RU,1632798431,76,50.6789,156.125,51.93,10.45
291,bathsheba,20,BB,1632798432,83,13.2167,-59.5167,79.41,5.75
292,fort nelson,95,NL,1632798432,89,52.6517,6.3861,53.96,7.18
293,zuwarah,57,LY,1632798432,79,32.9312,12.082,77.25,11.45
294,dikson,100,RU,1632798432,86,73.5069,80.5464,35.04,20.51
295,mikuni,88,JP,1632798433,70,36.2171,136.1519,74.82,6.42
296,kawalu,86,ID,1632798433,72,-7.3817,108.2082,78.94,5.46
297,lyndon,1,US,1632798434,73,38.2567,-85.6016,73.65,3.0
298,nanortalik,0,GL,1632798434,69,60.1432,-45.2371,34.7,4.07
299,key west,69,US,1632798434,50,32.7282,-101.7996,76.46,11.32
300,luancheng,100,CN,1632798435,64,37.8792,114.6517,71.71,5.32
301,tierralta,98,CO,1632798435,94,8.1736,-76.0592,76.06,5.84
302,ostersund,90,SE,1632798435,81,63.1792,14.6357,46.85,17.27
303,narsaq,0,GL,1632798436,44,60.9167,-46.05,30.42,3.69
304,labrea,46,BR,1632798436,94,-7.2586,-64.7981,72.48,1.99
305,summerside,54,CA,1632798436,72,46.3959,-63.7876,59.47,18.21
306,chifeng,99,CN,1632798437,42,42.2683,118.9636,71.85,10.83
307,butembo,83,CD,1632798437,96,0.15,29.2833,55.58,2.89
308,port augusta,38,CD,1632798391,61,-7.0349,29.7638,74.97,1.9
309,zhigansk,59,RU,1632798437,65,66.7697,123.3711,38.88,27.47
310,kuusamo,32,FI,1632798438,100,65.9667,29.1833,32.04,1.14
311,san cristobal,0,ML,1632798438,60,13.3034,-4.8956,80.11,8.43
312,jalu,0,LY,1632798439,64,29.0331,21.5482,69.31,7.72
313,katsuura,94,JP,1632798439,64,35.1333,140.3,73.51,15.37
314,inirida,66,CO,1632798439,97,3.8653,-67.9239,72.9,2.91
315,kaitangata,87,NZ,1632798439,61,-46.2817,169.8464,53.92,4.68
316,koindu,98,GN,1632798440,98,8.4386,-10.3253,68.43,1.54
317,neuquen,0,AR,1632798263,57,-38.9516,-68.0591,46.29,0.0
318,oistins,20,BB,1632798429,83,13.0667,-59.5333,78.89,5.75
319,olafsvik,80,IS,1632798440,77,64.8945,-23.7142,39.78,21.07
320,guerrero negro,100,MX,1632798441,97,17.6667,-100.0,65.77,4.41
321,morro bay,57,EC,1632798441,83,-2.6332,-80.3274,70.18,11.9
322,acapulco,89,MX,1632798212,84,16.8634,-99.8901,79.61,7.54
323,jacareacanga,100,BR,1632798441,90,-6.2222,-57.7528,73.89,0.83
324,hithadhoo,99,MV,1632798442,72,-0.6,73.0833,83.16,14.83
325,razole,100,IN,1632798442,84,16.4833,81.8333,82.69,5.41
326,cristalina,16,BR,1632798442,40,-16.7686,-47.6136,70.3,4.32
327,rawson,23,AR,1632798443,38,-43.3002,-65.1023,52.83,7.45
328,san carlos de bariloche,0,ML,1632798443,60,13.3034,-4.8956,80.11,8.43
329,ayan,29,RU,1632798444,67,56.45,138.1667,51.62,11.61
330,kerema,65,PG,1632798444,83,-7.9631,145.7785,82.17,8.08
331,marion,75,US,1632798444,67,39.7684,-86.1555,74.1,13.8
332,shirvan,43,AZ,1632798445,70,39.9509,48.8994,66.0,17.13
333,dabakala,78,CI,1632798445,92,8.3667,-4.4333,71.69,1.05
334,uarini,37,BR,1632798445,97,-2.99,-65.1083,72.84,1.9
335,obera,0,AR,1632798445,63,-27.4871,-55.1199,68.11,2.89
336,zemio,98,CF,1632798446,98,5.0314,25.1361,67.3,0.72
337,lanxi,94,CN,1632798446,51,29.2195,119.477,87.49,1.54
338,khandbari,20,NP,1632798446,62,27.3747,87.2039,79.09,1.7
339,coahuayana,99,MX,1632798446,88,18.7333,-103.6833,78.35,2.42
340,giaveno,28,IT,1632798447,83,45.047,7.3492,60.85,1.99
341,kaspiysk,40,RU,1632798447,76,42.8816,47.6392,59.23,7.0
342,talnakh,99,RU,1632798447,52,69.4865,88.3972,34.54,1.1
343,yulara,0,AU,1632798447,14,-25.2406,130.9889,83.52,16.55
344,lasa,2,IT,1632798448,78,46.6166,10.7002,51.03,4.85
345,bomet,43,KE,1632798448,93,-0.7813,35.3416,52.02,3.42
346,ambon,75,ID,1632798449,94,-3.6954,128.1814,80.74,6.91
347,gravelbourg,10,CA,1632798449,25,49.8834,-106.5512,70.16,6.15
348,sao filipe,100,IN,1632798449,93,20.5113,76.2129,71.53,8.21
349,urengoy,63,RU,1632798449,69,65.9667,78.3667,34.5,3.91
350,morondava,50,MG,1632798438,83,-20.2833,44.2833,72.68,4.61
351,ishigaki,81,JP,1632798450,70,24.3448,124.1572,83.48,18.37
352,alice springs,40,US,1632798450,86,27.7523,-98.0697,82.31,5.75
353,san patricio,0,ML,1632798450,60,13.3034,-4.8956,80.11,8.43
354,lubango,37,AO,1632798451,68,-14.9172,13.4925,58.26,2.89
355,shimoda,43,JP,1632798451,67,34.6667,138.95,74.46,15.48
356,bilibino,100,RU,1632798451,95,68.0546,166.4372,21.0,11.05
357,santa maria,46,PH,1632798451,65,17.486,120.4348,86.99,3.53
358,hailar,56,CN,1632798452,51,49.2,119.7,58.46,11.39
359,nara,87,JP,1632798295,65,34.6851,135.8049,76.69,3.71
360,hirara,84,JP,1632798452,72,24.8,125.2833,83.1,17.78
361,baykit,100,RU,1632798452,72,61.67,96.37,36.72,7.96
362,srivardhan,100,IN,1632798453,91,18.0333,73.0167,76.62,6.53
363,saint-georges,20,GD,1632798453,89,12.0564,-61.7485,80.28,0.0
364,esso,99,RU,1632798453,54,55.9333,158.7,47.8,5.88
365,chapais,95,CA,1632798165,93,49.7834,-74.8492,42.58,7.99
366,porto novo,20,PT,1632798289,92,41.1496,-8.611,61.29,1.99
367,zivinice,99,BA,1632798454,98,44.4494,18.6497,60.46,3.89
368,araouane,0,ML,1632798454,12,18.9048,-3.5265,88.09,9.89
369,santa lucia,46,PH,1632798451,65,17.486,120.4348,86.99,3.53
370,pimenta bueno,17,BR,1632798454,70,-20.4839,-45.7989,66.92,4.79
371,nome,1,US,1632798455,57,64.5011,-165.4064,39.27,5.75
372,llaillay,0,CL,1632798455,59,-32.85,-70.9667,65.25,1.34
373,gamba,100,GA,1632798455,85,-2.65,10.0,75.9,3.51
374,imbituba,5,BR,1632798185,92,-28.24,-48.6703,69.82,11.7
375,moose factory,1,US,1632798196,43,43.6558,-110.7183,57.88,8.05
376,hay river,100,GB,1632798455,91,52.0705,-3.1274,53.92,7.92
377,lorengau,60,PG,1632798456,64,-2.0226,147.2712,85.89,7.9
378,dongli,0,CN,1632798456,52,23.5656,116.8194,87.73,2.57
379,aqtobe,90,KZ,1632798456,93,50.2797,57.2072,37.49,8.95
380,okhotsk,100,RU,1632798457,88,59.3833,143.3,45.81,8.59
381,beringovskiy,100,RU,1632798457,74,63.05,179.3167,39.16,3.4
382,bojnurd,0,IR,1632798457,49,37.4747,57.329,60.76,4.9
383,oranjemund,9,NA,1632798457,91,-28.55,16.4333,52.45,11.23
384,vostok,100,RU,1632798458,94,46.4856,135.8833,56.59,1.57
385,vao,25,NC,1632798458,69,-22.6667,167.4833,68.14,10.98
386,fort saint james,95,NL,1632798458,89,52.6517,6.3861,53.96,7.18
387,port-cartier,100,CA,1632798459,93,50.0334,-66.8654,51.75,6.24
388,brewster,1,US,1632798459,65,41.3973,-73.6171,72.19,10.36
389,mujiayingzi,99,CN,1632798459,45,42.1167,118.7833,70.23,10.89
390,vardo,93,NO,1632798459,85,70.3705,31.1107,50.2,18.7
391,labuhan,66,ID,1632798460,53,-6.8844,112.2051,87.48,3.42
392,ancud,90,CL,1632798460,87,-41.8697,-73.8203,40.53,3.18
393,grand baie,100,US,1632798179,33,38.8755,-109.5012,74.59,2.64
394,paulo afonso,98,KE,1632798461,79,-0.7666,34.6,62.2,3.31
395,chibombo,75,ZM,1632798461,46,-14.6569,28.0706,68.07,5.66
396,shenkursk,94,RU,1632798461,95,62.1091,42.896,38.73,0.31
397,jhargram,88,IN,1632798462,86,22.45,86.9833,79.84,8.3
398,vanimo,92,PG,1632798462,78,-2.6741,141.3028,84.07,7.02
399,bekhtery,1,UA,1632798462,71,46.251,32.2927,46.0,7.9
400,praia da vitoria,0,CV,1632798462,78,14.9215,-23.5087,77.54,6.91
401,leningradskiy,100,RU,1632798463,94,69.3833,178.4167,25.72,8.08
402,chernyshevskiy,100,RU,1632798463,71,63.0128,112.4714,36.48,11.3
403,prince rupert,26,CA,1632798463,39,52.9669,-108.3847,64.51,7.83
404,chegdomyn,9,RU,1632798463,47,51.1167,133.0167,62.11,4.43
405,mana,21,GF,1632798464,82,5.6592,-53.7767,79.92,9.78
406,half moon bay,100,LR,1632798464,89,6.3807,-10.6953,75.09,0.49
407,saint-pierre,0,RE,1632798464,69,-21.3393,55.4781,69.44,8.05
408,mouzouras,0,GR,1632798464,72,35.5333,24.15,74.43,0.0
409,mbuguni,60,TZ,1632798465,79,-3.5667,36.95,62.01,3.69
410,southbridge,93,US,1632798279,86,42.0751,-72.0334,68.38,11.9
411,ambanja,16,MG,1632798465,74,-13.6833,48.45,69.71,3.31
412,brasilia de minas,0,BR,1632798224,56,-15.7797,-47.9297,68.92,1.14
413,skjervoy,100,NO,1632798465,75,70.0311,20.9714,51.93,11.52
414,shiyan,100,CN,1632798466,97,32.6475,110.7781,67.98,3.71
415,brownwood,75,US,1632798180,50,31.7093,-98.9912,82.17,6.91
416,mill creek,75,NL,1632798466,95,51.6822,5.7792,53.22,6.91
417,ulladulla,19,AU,1632798467,49,-35.35,150.4667,71.76,13.56
418,amapa,3,BR,1632798467,86,1.0,-52.0,70.38,2.46
419,pangody,60,RU,1632798467,67,65.85,74.4859,34.48,3.96
420,dabat,99,ET,1632798468,74,12.9842,37.765,52.21,4.47
421,yangshan,4,CN,1632798468,59,28.7615,115.0287,86.81,3.87
422,arlit,0,NE,1632798468,14,18.7369,7.3853,82.63,8.21
423,port hedland,38,CD,1632798360,61,-7.0349,29.7638,74.97,1.9
424,krompachy,75,SK,1632798469,94,48.9145,20.8751,53.98,3.49
425,paita,5,PE,1632798469,84,-5.0892,-81.1144,64.85,10.47
426,cukai,100,MY,1632798469,71,4.25,103.4167,84.31,3.76
427,paris,0,FR,1632798246,91,48.8534,2.3488,53.11,0.0
428,katherine,0,AU,1632798470,38,-14.4667,132.2667,95.32,10.36
429,brae,1,GB,1632798470,80,60.3964,-1.353,51.71,18.7
430,hoquiam,0,US,1632798470,97,46.9809,-123.8893,55.92,6.53
431,gazanjyk,2,TM,1632798471,47,39.2446,55.5154,62.13,9.31
432,senno,9,RU,1632798471,97,59.5336,33.9167,43.27,3.91
433,moranbah,0,AU,1632798471,29,-22.0016,148.0466,85.82,17.67
434,sinnamary,90,GF,1632798472,84,5.3833,-52.95,79.59,10.49
435,kavieng,77,PG,1632798472,68,-2.5744,150.7967,85.35,9.24
436,sobolevo,100,RU,1632798472,93,54.4299,31.8996,45.28,7.0
437,yarega,98,RU,1632798472,81,63.4354,53.5765,34.05,4.32
438,sola,42,VU,1632798473,81,-13.8833,167.55,79.12,17.85
439,jizan,7,SA,1632798473,75,17.3333,42.6667,84.07,2.21
440,vuktyl,100,RU,1632798474,74,63.8567,57.3094,36.14,3.38
441,tsumeb,83,NA,1632798474,20,-19.2333,17.7167,73.24,14.79
442,maumere,30,ID,1632798474,67,-8.6199,122.2111,83.79,1.88
443,tabou,98,CI,1632798475,92,4.423,-7.3528,75.51,7.74
444,bur gabo,26,DK,1632798475,95,56.365,8.4267,51.85,6.69
445,sao joao da barra,100,IN,1632798383,93,20.5113,76.2129,71.53,8.21
446,yamada,86,JP,1632798475,65,39.4667,141.95,69.01,9.51
447,tomatlan,100,MX,1632798476,93,19.9333,-105.25,76.59,1.41
448,makakilo city,40,US,1632798476,63,21.3524,-158.0865,81.75,9.22
449,socorro,1,US,1632798476,43,31.6546,-106.3033,79.45,0.0
450,sept-iles,100,CA,1632798415,94,50.2001,-66.3821,52.05,8.88
451,trenggalek,90,ID,1632798476,71,-8.05,111.7167,79.54,7.2
452,tabas,0,IR,1632798477,24,33.5959,56.9244,76.5,1.68
453,piranhas,27,BR,1632798477,45,-16.4269,-51.8222,79.32,3.4
454,mao,0,ES,1632798477,88,39.8885,4.2658,66.76,8.05
455,svetlogorsk,84,BY,1632798478,89,52.6333,29.7333,45.27,5.17
456,neiafu,40,TO,1632798478,73,-18.65,-173.9833,79.48,9.22
457,aksay,100,RU,1632798478,41,47.26,39.87,57.25,11.01
458,sidi ali,92,CF,1632798478,97,5.0829,19.8781,69.42,0.4
459,kununurra,97,AU,1632798479,34,-15.7667,128.7333,94.98,8.05
460,damietta,0,EG,1632798479,73,31.4165,31.8133,73.74,9.1
461,shakiso,100,ET,1632798479,80,5.75,38.9167,60.21,1.1
462,beloha,7,MG,1632798480,58,-25.1667,45.05,69.44,9.01
463,mayumba,100,GA,1632798480,89,-3.432,10.6554,75.45,5.41
464,mecca,92,SA,1632798480,52,21.4267,39.8261,82.81,4.36
465,nemuro,83,JP,1632798481,75,43.3236,145.575,59.56,16.04
466,chudniv,15,UA,1632798481,79,50.052,28.1175,43.21,3.67
467,bundaberg,90,AU,1632798481,61,-24.85,152.35,71.22,8.01
468,xining,0,CN,1632798252,46,36.6167,101.7667,59.97,0.07
469,lazarev,52,RU,1632798481,73,52.225,141.5131,61.9,7.38
470,codrington,94,AU,1632798482,57,-38.2667,141.9667,67.8,5.55
471,suleja,100,NG,1632798482,96,9.1758,7.1808,71.08,2.62
472,manacapuru,98,BR,1632798482,92,-3.2997,-60.6206,75.78,4.27
473,varhaug,0,NO,1632798483,82,58.6147,5.6457,52.9,8.46
474,xocali,43,AZ,1632798483,66,39.913,46.7903,55.87,3.04
475,awjilah,0,LY,1632798484,64,29.1081,21.2869,69.48,8.37
476,cockburn town,100,AU,1632798484,22,-32.0833,141.0,73.17,10.49
477,hede,46,CN,1632798484,66,33.7681,120.2517,80.44,3.65
478,deputatskiy,95,RU,1632798485,59,69.3,139.9,25.18,7.58
479,tahe,100,CN,1632798485,65,52.3333,124.7333,48.88,6.4
480,brigham city,100,CA,1632798486,98,45.2464,-72.8454,59.45,3.62
481,monroe,75,US,1632798190,79,43.1501,-77.6831,68.63,6.91
482,margate,3,GB,1632798486,83,51.3813,1.3862,54.7,13.56
483,trairi,71,BR,1632798323,83,-3.2778,-39.2689,79.12,11.61
484,razdolinsk,100,RU,1632798486,78,58.4211,94.6658,36.7,5.53
485,elizabethtown,1,US,1632798229,88,37.694,-85.8591,72.99,0.0
486,faya,6,SA,1632798487,28,18.3851,42.4509,57.72,3.02
487,pindiga,63,NG,1632798487,92,9.9833,10.9333,70.84,5.21
488,bentong,94,MY,1632798487,65,3.5181,101.9079,86.45,1.66
489,mitsamiouli,2,KM,1632798488,70,-11.3847,43.2844,77.16,5.32
490,port-gentil,93,GA,1632798488,83,-0.7193,8.7815,77.29,9.71
491,dehui,85,CN,1632798488,68,44.5333,125.7,68.88,12.66
492,inhambane,66,MZ,1632798489,85,-23.865,35.3833,70.57,8.93
493,berwick,69,US,1632798465,80,41.0545,-76.2333,66.06,3.4
494,mys shmidta,63,RU,1632798489,91,62.0589,48.6201,32.74,1.54
495,snezhnogorsk,93,RU,1632798489,90,69.1933,33.2531,31.78,9.84
496,tobol,100,KZ,1632798490,97,52.6844,62.5794,34.9,14.72
497,mogadishu,83,SO,1632798490,82,2.0371,45.3438,77.59,15.43
498,dzhebariki-khaya,0,RU,1632798490,48,62.2167,135.8,47.7,6.69
499,werda,49,BW,1632798491,26,-25.2667,23.2833,65.86,6.58
500,panlaitan,96,PH,1632798491,71,12.1191,119.8486,84.63,4.97
501,ketchikan,100,US,1632798491,99,55.3422,-131.6461,51.78,3.4
502,pangkalanbuun,38,ID,1632798492,67,-2.6833,111.6167,86.52,3.8
503,abu dhabi,94,IN,1632798492,77,24.6,72.7,71.62,5.17
504,pilisszentkereszt,94,HU,1632798492,98,47.6914,18.905,59.29,4.34
505,ennis,40,IE,1632798493,81,52.8436,-8.9864,51.06,10.36
506,elizabeth city,40,US,1632798226,60,40.664,-74.2107,72.95,13.0
507,malinovskiy,81,RU,1632798493,82,61.1953,62.8397,32.74,3.22
508,salalah,40,OM,1632798494,89,17.0151,54.0924,78.89,3.44
509,samarai,90,PG,1632798494,82,-10.6167,150.6667,79.93,12.03
510,gat,1,IL,1632798495,100,31.61,34.7642,72.39,4.45
511,marzuq,42,YE,1632798495,42,14.4,46.4667,75.06,0.49
512,alihe,97,CN,1632798495,59,50.5667,123.7167,58.19,8.95
513,nikolayevka,100,RU,1632798496,91,53.1257,47.2041,40.01,11.03
514,alim,74,PH,1632798496,73,9.5649,122.4876,84.81,8.05
515,nagar karnul,41,IN,1632798496,69,27.4333,77.1,85.48,9.62
516,atraulia,3,IN,1632798497,72,26.3333,82.95,85.42,8.52
517,manitouwadge,58,CA,1632798497,80,49.1215,-85.8403,43.32,3.83
518,dauphin,78,CA,1632798497,42,51.1494,-100.0502,67.37,6.98
519,tamasane,0,BW,1632798498,43,-22.4184,27.4013,64.62,3.31
520,saldanha,2,ZA,1632798498,78,-33.0117,17.9442,55.58,12.84
521,iquique,9,CL,1632798498,75,-20.2208,-70.1431,60.84,0.89
522,pandamatenga,0,BW,1632798499,43,-18.5278,25.627,65.82,5.53
523,adrar,0,MR,1632798499,11,20.5022,-10.0711,88.66,5.95
524,dicabisagan,23,PH,1632798499,64,17.0818,122.4157,88.36,6.85
525,ayr,40,GB,1632798500,81,55.4627,-4.6339,50.31,12.66
526,phan rang,100,TH,1632798500,79,19.5539,99.7405,77.81,1.79
527,acarau,93,BR,1632798500,84,-2.8856,-40.12,79.27,15.9
528,mayahi,1,NE,1632798501,37,13.9553,7.6712,82.69,6.17
529,mokhsogollokh,40,RU,1632798501,43,61.4681,128.9203,45.64,11.97
530,kralendijk,0,BQ,1632798501,83,12.15,-68.2667,82.38,10.36
531,jijiga,94,ET,1632798502,64,9.35,42.8,66.07,6.24
532,puerto madryn,0,ES,1632798502,91,36.5939,-6.233,64.54,3.44
533,astana,90,KZ,1632798502,93,51.1801,71.446,39.15,15.66
534,abu zabad,94,IN,1632798503,77,24.6,72.7,71.62,5.17
535,autun,23,FR,1632798503,94,46.95,4.3,51.24,0.83
536,rocha,100,UY,1632798503,98,-34.4833,-54.3333,54.9,1.74
537,kavaratti,100,IN,1632798503,78,10.5669,72.642,81.64,20.6
538,pedasi,100,PA,1632798504,81,7.5333,-80.0333,79.07,7.05
539,peniche,67,PT,1632798504,88,39.3558,-9.3811,64.62,15.79
540,pakxan,27,LA,1632798504,65,18.3778,103.6601,85.64,1.68
541,khetri,26,IN,1632798371,74,27.9833,75.8,81.61,8.75
542,teguldet,21,RU,1632798505,74,57.3064,88.1667,39.69,3.27
543,bridlington,50,GB,1632798505,83,54.0831,-0.1919,49.93,16.75
544,marawi,91,PH,1632798505,55,7.9986,124.2928,77.65,3.33
545,qasigiannguit,0,GL,1632798506,73,68.8193,-51.1922,21.45,5.28
546,raga,70,SS,1632798506,94,8.4596,25.678,69.55,3.44
547,kletskaya,98,RU,1632798506,85,49.3145,43.0584,48.49,6.33
548,tessalit,0,ML,1632798507,16,20.1986,1.0114,82.83,9.6
549,ekibastuz,100,KZ,1632798507,81,51.6667,75.3667,38.43,13.67
550,tilichiki,100,RU,1632798507,55,60.4667,166.1,42.78,8.66
551,talara,10,PE,1632798508,87,-4.5772,-81.2719,64.81,12.62
552,atemar,100,RU,1632798508,87,54.181,45.4091,38.05,13.49
553,harnosand,84,SE,1632798508,90,62.6323,17.9379,53.01,13.29
